{
  "animals": [
    {
      "id": "1",
      "species": "dog",
      "name": "Luna",
      "ageYears": 2,
      "size": "medium",
      "breed": "Mestizo",
      "date": "12/01/2025",
      "sex": "f",
      "status": "available",
      "compatibleWithDogs": true,
      "compatibleWithCats": false,
      "compatibleWithChildren": true,
      "description": "Perra joven y cariñosa, muy sociable con personas y perfecta para familias activas.",
      "history": "Luna fue encontrada en un parque de Madrid tras haber sido abandonada. Un vecino la estuvo alimentando unos días hasta que avisó a la protectora.",
      "location": {
        "city": "Madrid",
        "region": "Madrid",
        "country": "España",
        "shelter": {
          "id": 1,
          "name": "Protectora Madrid Central",
          "email": "contacto@protectoramadridcentral.org",
          "phone": "+34 91 555 0001",
          "address": {
            "city": "Alcalá de Henares",
            "region": "Madrid"
          },
          "facebook": "https://facebook.com/protectoramadridcentral",
          "instagram": "https://instagram.com/protectoramadridcentral"
        }
      },
      "imageUrl": [
        "https://placedog.net/500/400?id=1",
        "https://placedog.net/500/400?id=31"
      ]
    },
    {
      "id": "2",
      "species": "dog",
      "name": "Rocky",
      "ageYears": 4,
      "size": "medium",
      "breed": "Pastor Alemán",
      "date": "12/01/2025",
      "sex": "m",
      "status": "available",
      "compatibleWithDogs": true,
      "compatibleWithCats": false,
      "compatibleWithChildren": true,
      "description": "Perro muy noble, leal y obediente. Ideal para hogares con niños.",
      "history": "Rocky fue cedido por una familia que no podía seguir cuidando de él por motivos laborales. Ha vivido siempre en casa y está acostumbrado a la convivencia familiar.",
      "location": {
        "city": "Barcelona",
        "region": "Barcelona",
        "country": "España",
        "shelter": {
          "id": 2,
          "name": "Protectora Barcelona",
          "email": "contacto@protectorabcn.cat",
          "phone": "+34 93 555 0002",
          "address": {
            "city": "Sabadell",
            "region": "Barcelona"
          },
          "facebook": "https://facebook.com/protectorabarcelona"
        }
      },
      "imageUrl": [
        "https://placedog.net/500/400?id=2",
        "https://placedog.net/500/400?id=32"
      ]
    },
    {
      "id": "3",
      "species": "dog",
      "name": "Thor",
      "ageYears": 5,
      "size": "large",
      "breed": "Labrador Retriever",
      "date": "12/01/2025",
      "sex": "m",
      "status": "available",
      "compatibleWithDogs": true,
      "compatibleWithCats": true,
      "compatibleWithChildren": false,
      "description": "Perro grande, enérgico y con mucha fuerza. Necesita ejercicio diario.",
      "history": "Thor fue rescatado de una finca donde vivía atado la mayor parte del día. Desde que está en el refugio ha mejorado mucho su socialización y disfruta de los paseos largos.",
      "specialNeeds": "Precisa de paseos diarios largos y trabajo de manejo con correa por su fuerza.",
      "location": {
        "city": "Valencia",
        "region": "Valencia",
        "country": "España",
        "shelter": {
          "id": 3,
          "name": "Protectora Valencia",
          "email": "info@protectoravalencia.es",
          "phone": "+34 96 555 0003",
          "address": {
            "city": "Gandía",
            "region": "Valencia"
          },
          "instagram": "https://instagram.com/protectoravalencia"
        }
      },
      "imageUrl": [
        "https://placedog.net/500/400?id=3",
        "https://placedog.net/500/400?id=33"
      ]
    },
    {
      "id": "4",
      "species": "dog",
      "name": "Nube",
      "ageYears": 3,
      "size": "medium",
      "breed": "Mestizo",
      "date": "12/01/2025",
      "sex": "f",
      "status": "available",
      "compatibleWithDogs": false,
      "compatibleWithCats": false,
      "compatibleWithChildren": true,
      "description": "Perra tranquila y muy dulce, perfecta para un hogar calmado.",
      "history": "Nube llegó al refugio junto a otro perro con el que no se llevaba bien. En el refugio han visto que prefiere ser la única mascota de la casa.",
      "location": {
        "city": "Sevilla",
        "region": "Sevilla",
        "country": "España",
        "shelter": {
          "id": 4,
          "name": "Protectora Sevilla",
          "email": "contacto@protectorasevilla.org",
          "phone": "+34 95 555 0004",
          "address": {
            "city": "Dos Hermanas",
            "region": "Sevilla"
          },
          "facebook": "https://facebook.com/protectorasevilla",
          "instagram": "https://instagram.com/protectorasevilla"
        }
      },
      "imageUrl": [
        "https://placedog.net/500/400?id=4",
        "https://placedog.net/500/400?id=34"
      ]
    },
    {
      "id": "5",
      "species": "dog",
      "name": "Bimba",
      "ageYears": 6,
      "size": "medium",
      "breed": "Bulldog Francés",
      "date": "12/01/2025",
      "sex": "f",
      "status": "available",
      "compatibleWithDogs": true,
      "compatibleWithCats": false,
      "compatibleWithChildren": true,
      "description": "Perra muy cariñosa y sociable. Siempre busca mimos y compañía.",
      "history": "Bimba fue rescatada de la calle con claros signos de haber tenido varias camadas. Desde que está la protectora se ha adaptado muy bien a la vida en interior.",
      "location": {
        "city": "Bilbao",
        "region": "Bizkaia",
        "country": "España",
        "shelter": {
          "id": 5,
          "name": "Protectora Bilbao",
          "email": "info@protectorabilbao.eus",
          "phone": "+34 94 555 0005",
          "address": {
            "city": "Getxo",
            "region": "Bizkaia"
          },
          "facebook": "https://facebook.com/protectoraibilbao"
        }
      },
      "imageUrl": [
        "https://placedog.net/500/400?id=5",
        "https://placedog.net/500/400?id=35"
      ]
    },
    {
      "id": "6",
      "species": "dog",
      "name": "Max",
      "ageYears": 1,
      "size": "small",
      "breed": "Mestizo",
      "date": "12/01/2025",
      "sex": "m",
      "status": "reserved",
      "compatibleWithDogs": true,
      "compatibleWithCats": true,
      "compatibleWithChildren": true,
      "description": "Cachorro con mucha energía y ganas de aprender. Muy listo.",
      "history": "Max fue encontrado junto a sus hermanos en una caja de cartón a las afueras de la ciudad. Es el más curioso y juguetón de la camada.",
      "location": {
        "city": "Zaragoza",
        "region": "Zaragoza",
        "country": "España",
        "shelter": {
          "id": 6,
          "name": "Protectora Zaragoza",
          "email": "contacto@protectorazaragoza.org",
          "phone": "+34 97 655 0006",
          "address": {
            "city": "Utebo",
            "region": "Zaragoza"
          },
          "instagram": "https://instagram.com/protectorazaragoza"
        }
      },
      "imageUrl": [
        "https://placedog.net/500/400?id=6",
        "https://placedog.net/500/400?id=36"
      ]
    },
    {
      "id": "7",
      "species": "dog",
      "name": "Toby",
      "ageYears": 3,
      "size": "medium",
      "breed": "Golden Retriever",
      "date": "12/01/2025",
      "sex": "m",
      "status": "available",
      "compatibleWithDogs": true,
      "compatibleWithCats": true,
      "compatibleWithChildren": true,
      "description": "Perro juguetón y simpático. Le encanta salir a pasear.",
      "history": "Toby vivía con una persona mayor que ya no podía sacarlo a la calle con la frecuencia necesaria. Lo cedió al refugio buscando para él una familia más activa.",
      "location": {
        "city": "Málaga",
        "region": "Málaga",
        "country": "España",
        "shelter": {
          "id": 7,
          "name": "Protectora Málaga",
          "email": "info@protectoramalaga.es",
          "phone": "+34 95 222 0007",
          "address": {
            "city": "Marbella",
            "region": "Málaga"
          },
          "facebook": "https://facebook.com/protectoramalaga",
          "instagram": "https://instagram.com/protectoramalaga"
        }
      },
      "imageUrl": [
        "https://placedog.net/500/400?id=7",
        "https://placedog.net/500/400?id=37"
      ]
    },
    {
      "id": "8",
      "species": "dog",
      "name": "Simba",
      "ageYears": 4,
      "size": "medium",
      "breed": "Mestizo",
      "date": "12/01/2025",
      "sex": "m",
      "status": "available",
      "compatibleWithDogs": true,
      "compatibleWithCats": false,
      "compatibleWithChildren": true,
      "description": "Muy cariñoso y sociable. Siempre quiere estar acompañado.",
      "history": "Simba fue rescatado de una situación de abandono en un patio sin apenas contacto humano. En pocos meses se ha convertido en un perro muy cercano y confiado.",
      "location": {
        "city": "A Coruña",
        "region": "A Coruña",
        "country": "España",
        "shelter": {
          "id": 8,
          "name": "Protectora A Coruña",
          "email": "contacto@protectoracorunha.gal",
          "phone": "+34 98 155 0008",
          "address": {
            "city": "Betanzos",
            "region": "A Coruña"
          },
          "facebook": "https://facebook.com/protectoracorunha"
        }
      },
      "imageUrl": [
        "https://placedog.net/500/400?id=8",
        "https://placedog.net/500/400?id=38"
      ]
    },
    {
      "id": "9",
      "species": "dog",
      "name": "Jack",
      "ageYears": 2,
      "size": "medium",
      "breed": "Border Collie",
      "date": "12/01/2025",
      "sex": "m",
      "status": "available",
      "compatibleWithDogs": true,
      "compatibleWithCats": false,
      "compatibleWithChildren": true,
      "description": "Perro joven, muy activo y con muchas ganas de jugar.",
      "history": "Jack fue recogido en la carretera siguiendo a los coches. No llevaba chip y nadie lo ha reclamado, así que busca una nueva familia con energía.",
      "location": {
        "city": "Murcia",
        "region": "Murcia",
        "country": "España",
        "shelter": {
          "id": 9,
          "name": "Protectora Murcia",
          "email": "info@protectoramurcia.org",
          "phone": "+34 96 835 0009",
          "address": {
            "city": "Cartagena",
            "region": "Murcia"
          },
          "instagram": "https://instagram.com/protectoramurcia"
        }
      },
      "imageUrl": [
        "https://placedog.net/500/400?id=9",
        "https://placedog.net/500/400?id=39"
      ]
    },
    {
      "id": "10",
      "species": "dog",
      "name": "Lola",
      "ageYears": 5,
      "size": "medium",
      "breed": "Mestizo",
      "date": "12/01/2025",
      "sex": "f",
      "status": "reserved",
      "compatibleWithDogs": false,
      "compatibleWithCats": true,
      "compatibleWithChildren": true,
      "description": "Perra muy tranquila y obediente. Ideal para vida en piso.",
      "history": "Lola convivía con una persona que tuvo que ingresar en una residencia. Está acostumbrada a vivir en interior y a pasar muchas horas acompañando en casa.",
      "location": {
        "city": "Valladolid",
        "region": "Valladolid",
        "country": "España",
        "shelter": {
          "id": 10,
          "name": "Protectora Valladolid",
          "email": "contacto@protectoravalladolid.es",
          "phone": "+34 98 335 0010",
          "address": {
            "city": "Medina del Campo",
            "region": "Valladolid"
          },
          "facebook": "https://facebook.com/protectoravalladolid",
          "instagram": "https://instagram.com/protectoravalladolid"
        }
      },
      "imageUrl": [
        "https://placedog.net/500/400?id=10",
        "https://placedog.net/500/400?id=40"
      ]
    },
    {
      "id": "11",
      "species": "dog",
      "name": "Bruno",
      "ageYears": 7,
      "size": "large",
      "breed": "Mestizo",
      "date": "12/01/2025",
      "sex": "m",
      "status": "available",
      "compatibleWithDogs": false,
      "compatibleWithCats": false,
      "compatibleWithChildren": false,
      "description": "Perro mayor, calmado y muy noble. Busca un hogar tranquilo.",
      "history": "Bruno pasó varios años en una perrera municipal hasta que fue trasladado al refugio. A pesar de todo, sigue confiando en las personas y agradece cada caricia.",
      "specialNeeds": "Tiene artrosis leve y necesita cama mullida y paseos cortos.",
      "location": {
        "city": "Toledo",
        "region": "Toledo",
        "country": "España",
        "shelter": {
          "id": 11,
          "name": "Protectora Toledo",
          "email": "info@protectoratoledo.org",
          "phone": "+34 92 525 0011",
          "address": {
            "city": "Toledo",
            "region": "Toledo"
          },
          "facebook": "https://facebook.com/protectoratoledo"
        }
      },
      "imageUrl": [
        "https://placedog.net/500/400?id=11",
        "https://placedog.net/500/400?id=41"
      ]
    },
    {
      "id": "12",
      "species": "dog",
      "name": "Rex",
      "ageYears": 6,
      "size": "large",
      "breed": "Pastor Belga",
      "date": "12/01/2025",
      "sex": "m",
      "status": "available",
      "compatibleWithDogs": true,
      "compatibleWithCats": false,
      "compatibleWithChildren": false,
      "description": "Perro inteligente y vigilante. Ideal para personas con experiencia.",
      "history": "Rex vivía como perro de guarda en una nave industrial y pasaba muchas horas solo. En el refugio ha demostrado ser muy leal con las personas de referencia.",
      "specialNeeds": "Requiere adoptante con experiencia en perros de trabajo y manejo firme pero respetuoso.",
      "location": {
        "city": "Gijón",
        "region": "Asturias",
        "country": "España",
        "shelter": {
          "id": 12,
          "name": "Protectora Gijón",
          "email": "contacto@protectoragijon.es",
          "phone": "+34 98 535 0012",
          "address": {
            "city": "Gijón",
            "region": "Asturias"
          },
          "instagram": "https://instagram.com/protectoragijon"
        }
      },
      "imageUrl": [
        "https://placedog.net/500/400?id=12",
        "https://placedog.net/500/400?id=42"
      ]
    },
    {
      "id": "13",
      "species": "dog",
      "name": "Zeus",
      "ageYears": 3,
      "size": "large",
      "breed": "Mestizo",
      "date": "12/01/2025",
      "sex": "m",
      "status": "available",
      "compatibleWithDogs": true,
      "compatibleWithCats": false,
      "compatibleWithChildren": true,
      "description": "Muy protector y activo. Perfecto para rutinas con actividad.",
      "history": "Zeus llegó a la protectora después de varios avisos por escaparse del jardín. Es un perro joven al que le encanta hacer ejercicio y aprender trucos.",
      "location": {
        "city": "Madrid",
        "region": "Madrid",
        "country": "España",
        "shelter": {
          "id": 1,
          "name": "Protectora Madrid Central",
          "email": "contacto@protectoramadridcentral.org",
          "phone": "+34 91 555 0001",
          "address": {
            "city": "Alcalá de Henares",
            "region": "Madrid"
          },
          "facebook": "https://facebook.com/protectoramadridcentral",
          "instagram": "https://instagram.com/protectoramadridcentral"
        }
      },
      "imageUrl": [
        "https://placedog.net/500/400?id=13",
        "https://placedog.net/500/400?id=43"
      ]
    },
    {
      "id": "14",
      "species": "dog",
      "name": "Cleo",
      "ageYears": 2,
      "size": "small",
      "breed": "Mestizo",
      "date": "12/01/2025",
      "sex": "f",
      "status": "available",
      "compatibleWithDogs": true,
      "compatibleWithCats": true,
      "compatibleWithChildren": true,
      "description": "Perra muy dócil, cariñosa y tranquila. Perfecta para piso.",
      "history": "Cleo fue rescatada de un abandono en una caja de transporte frente al refugio. Desde el primer día se mostró muy confiada y cariñosa.",
      "location": {
        "city": "Granada",
        "region": "Granada",
        "country": "España",
        "shelter": {
          "id": 13,
          "name": "Protectora Granada",
          "email": "info@protectoragranada.org",
          "phone": "+34 95 822 0014",
          "address": {
            "city": "Granada",
            "region": "Granada"
          },
          "facebook": "https://facebook.com/protectoragranada",
          "instagram": "https://instagram.com/protectoragranada"
        }
      },
      "imageUrl": [
        "https://placedog.net/500/400?id=14",
        "https://placedog.net/500/400?id=44"
      ]
    },
    {
      "id": "15",
      "species": "dog",
      "name": "Hera",
      "ageYears": 4,
      "size": "large",
      "breed": "Mestizo",
      "date": "12/01/2025",
      "sex": "f",
      "status": "available",
      "compatibleWithDogs": true,
      "compatibleWithCats": false,
      "compatibleWithChildren": true,
      "description": "Perra equilibrada, tranquila y muy agradecida.",
      "history": "Hera vivía con una familia que se trasladó al extranjero y no pudo llevársela. Está acostumbrada a convivir en casa y se adapta bien a nuevas rutinas.",
      "location": {
        "city": "Pamplona",
        "region": "Navarra",
        "country": "España",
        "shelter": {
          "id": 14,
          "name": "Protectora Pamplona",
          "email": "contacto@protectorapamplona.eus",
          "phone": "+34 94 812 0015",
          "address": {
            "city": "Pamplona",
            "region": "Navarra"
          },
          "instagram": "https://instagram.com/protectorapamplona"
        }
      },
      "imageUrl": [
        "https://placedog.net/500/400?id=15",
        "https://placedog.net/500/400?id=45"
      ]
    },
    {
      "id": "16",
      "species": "dog",
      "name": "Duke",
      "ageYears": 8,
      "size": "large",
      "breed": "Mestizo",
      "date": "12/01/2025",
      "sex": "m",
      "status": "available",
      "compatibleWithDogs": false,
      "compatibleWithCats": false,
      "compatibleWithChildren": true,
      "description": "Perro mayor muy calmado, ideal para hogar con rutina estable.",
      "history": "Duke llegó al refugio tras el fallecimiento de su tutor. Es un perro muy educado que solo busca un hogar tranquilo para pasar sus años de jubilación.",
      "specialNeeds": "Sigue una medicación económica para control de la tensión.",
      "location": {
        "city": "León",
        "region": "León",
        "country": "España",
        "shelter": {
          "id": 15,
          "name": "Protectora León",
          "email": "info@protectoraleon.org",
          "phone": "+34 98 722 0016",
          "address": {
            "city": "León",
            "region": "León"
          },
          "facebook": "https://facebook.com/protectoraleon"
        }
      },
      "imageUrl": [
        "https://placedog.net/500/400?id=16",
        "https://placedog.net/500/400?id=46"
      ]
    },
    {
      "id": "17",
      "species": "dog",
      "name": "Tana",
      "ageYears": 1,
      "size": "small",
      "breed": "Mestizo",
      "date": "12/01/2025",
      "sex": "f",
      "status": "available",
      "compatibleWithDogs": true,
      "compatibleWithCats": true,
      "compatibleWithChildren": true,
      "description": "Cachorra alegre, aprende rápido y es muy cariñosa.",
      "history": "Tana fue encontrada sola en un descampado. En el refugio ha aprendido a relacionarse con otros perros y a pasear con correa.",
      "location": {
        "city": "Santander",
        "region": "Cantabria",
        "country": "España",
        "shelter": {
          "id": 16,
          "name": "Protectora Santander",
          "email": "contacto@protectorasantander.es",
          "phone": "+34 94 220 0017",
          "address": {
            "city": "Santander",
            "region": "Cantabria"
          },
          "instagram": "https://instagram.com/protectorasantander"
        }
      },
      "imageUrl": [
        "https://placedog.net/500/400?id=17",
        "https://placedog.net/500/400?id=47"
      ]
    },
    {
      "id": "18",
      "species": "dog",
      "name": "Fiona",
      "ageYears": 5,
      "size": "medium",
      "breed": "Mestizo",
      "date": "12/01/2025",
      "sex": "f",
      "status": "available",
      "compatibleWithDogs": false,
      "compatibleWithCats": false,
      "compatibleWithChildren": true,
      "description": "Perra tranquila, muy cariñosa con adultos y niños.",
      "history": "Fiona llegó al refugio tras ser encontrada vagando por una urbanización. Desde el primer día buscó el contacto con las personas.",
      "location": {
        "city": "Cádiz",
        "region": "Cádiz",
        "country": "España",
        "shelter": {
          "id": 17,
          "name": "Protectora Cádiz",
          "email": "info@protectoracadiz.org",
          "phone": "+34 95 625 0018",
          "address": {
            "city": "Cádiz",
            "region": "Cádiz"
          },
          "facebook": "https://facebook.com/protectoracadiz"
        }
      },
      "imageUrl": [
        "https://placedog.net/500/400?id=18",
        "https://placedog.net/500/400?id=48"
      ]
    },
    {
      "id": "19",
      "species": "dog",
      "name": "Ghost",
      "ageYears": 2,
      "size": "large",
      "breed": "Husky Siberiano",
      "date": "12/01/2025",
      "sex": "m",
      "status": "available",
      "compatibleWithDogs": true,
      "compatibleWithCats": true,
      "compatibleWithChildren": false,
      "description": "Perro muy inteligente y atlético. Ideal para deporte y montaña.",
      "history": "Ghost fue entregado por una familia que no podía cubrir sus necesidades de ejercicio. En el refugio disfruta saliendo a correr con voluntarios.",
      "specialNeeds": "Necesita una familia muy activa que pueda darle actividad física diaria.",
      "location": {
        "city": "Logroño",
        "region": "La Rioja",
        "country": "España",
        "shelter": {
          "id": 18,
          "name": "Protectora Logroño",
          "email": "contacto@protectoralogrono.org",
          "phone": "+34 94 122 0019",
          "address": {
            "city": "Logroño",
            "region": "La Rioja"
          },
          "instagram": "https://instagram.com/protectoralogrono"
        }
      },
      "imageUrl": [
        "https://placedog.net/500/400?id=19",
        "https://placedog.net/500/400?id=49"
      ]
    },
    {
      "id": "20",
      "species": "dog",
      "name": "Buddy",
      "ageYears": 3,
      "size": "medium",
      "breed": "Mestizo",
      "date": "12/01/2025",
      "sex": "m",
      "status": "available",
      "compatibleWithDogs": true,
      "compatibleWithCats": true,
      "compatibleWithChildren": true,
      "description": "Perro equilibrado y cariñoso, muy sociable con todos.",
      "history": "Buddy fue encontrado con collar pero sin identificación. A pesar de la difusión, nadie lo reclamó y ahora busca un nuevo hogar.",
      "location": {
        "city": "Huelva",
        "region": "Huelva",
        "country": "España",
        "shelter": {
          "id": 19,
          "name": "Protectora Huelva",
          "email": "info@protectorahuelva.org",
          "phone": "+34 95 924 0020",
          "address": {
            "city": "Huelva",
            "region": "Huelva"
          },
          "facebook": "https://facebook.com/protectorahuelva",
          "instagram": "https://instagram.com/protectorahuelva"
        }
      },
      "imageUrl": [
        "https://placedog.net/500/400?id=20",
        "https://placedog.net/500/400?id=50"
      ]
    },
    {
      "id": "21",
      "species": "dog",
      "name": "Coco",
      "ageYears": 2,
      "size": "small",
      "breed": "Mestizo",
      "date": "12/01/2025",
      "sex": "m",
      "status": "available",
      "compatibleWithDogs": true,
      "compatibleWithCats": false,
      "compatibleWithChildren": true,
      "description": "Le encanta jugar y es muy sociable. Ideal para familias.",
      "history": "Coco fue entregado por una familia joven que tuvo un cambio de domicilio y no podía seguir teniéndolo. Está acostumbrado a vivir dentro de casa.",
      "location": {
        "city": "Tarragona",
        "region": "Tarragona",
        "country": "España",
        "shelter": {
          "id": 20,
          "name": "Protectora Tarragona",
          "email": "contacto@protectoratarragona.cat",
          "phone": "+34 97 722 0021",
          "address": {
            "city": "Tarragona",
            "region": "Tarragona"
          },
          "facebook": "https://facebook.com/protectoratarragona"
        }
      },
      "imageUrl": [
        "https://placedog.net/500/400?id=21",
        "https://placedog.net/500/400?id=51"
      ]
    },
    {
      "id": "22",
      "species": "dog",
      "name": "Nina",
      "ageYears": 1,
      "size": "small",
      "breed": "Mestizo",
      "date": "12/01/2025",
      "sex": "f",
      "status": "available",
      "compatibleWithDogs": true,
      "compatibleWithCats": true,
      "compatibleWithChildren": true,
      "description": "Muy cariñosa y dulce. Siempre quiere estar cerca de la gente.",
      "history": "Nina fue rescatada de un vertedero junto con otra perrita. A pesar de su comienzo complicado, es extremadamente confiada con las personas.",
      "location": {
        "city": "Palma",
        "region": "Islas Baleares",
        "country": "España",
        "shelter": {
          "id": 21,
          "name": "Protectora Palma",
          "email": "info@protectorapalma.es",
          "phone": "+34 97 120 0022",
          "address": {
            "city": "Palma",
            "region": "Islas Baleares"
          },
          "instagram": "https://instagram.com/protectorapalma"
        }
      },
      "imageUrl": [
        "https://placedog.net/500/400?id=22",
        "https://placedog.net/500/400?id=52"
      ]
    },
    {
      "id": "23",
      "species": "dog",
      "name": "Simón",
      "ageYears": 4,
      "size": "medium",
      "breed": "Mestizo",
      "date": "12/01/2025",
      "sex": "m",
      "status": "available",
      "compatibleWithDogs": true,
      "compatibleWithCats": true,
      "compatibleWithChildren": false,
      "description": "Perro tranquilo y observador. Muy fiel cuando coge confianza.",
      "history": "Simón fue recogido tras varios avisos en un polígono industrial. Al principio era muy desconfiado, pero ha mejorado mucho con trabajo de socialización.",
      "location": {
        "city": "Salamanca",
        "region": "Salamanca",
        "country": "España",
        "shelter": {
          "id": 22,
          "name": "Protectora Salamanca",
          "email": "contacto@protectorasalamanca.org",
          "phone": "+34 92 326 0023",
          "address": {
            "city": "Salamanca",
            "region": "Salamanca"
          },
          "facebook": "https://facebook.com/protectorasalamanca"
        }
      },
      "imageUrl": [
        "https://placedog.net/500/400?id=23",
        "https://placedog.net/500/400?id=53"
      ]
    },
    {
      "id": "24",
      "species": "dog",
      "name": "Togo",
      "ageYears": 3,
      "size": "medium",
      "breed": "Mestizo",
      "date": "12/01/2025",
      "sex": "m",
      "status": "available",
      "compatibleWithDogs": true,
      "compatibleWithCats": false,
      "compatibleWithChildren": true,
      "description": "Activo, curioso y muy inteligente.",
      "history": "Togo fue encontrado con una cadena rota cerca de una zona rural. Aprendió muy rápido a pasear con correa y a responder a órdenes básicas.",
      "location": {
        "city": "Ávila",
        "region": "Ávila",
        "country": "España",
        "shelter": {
          "id": 23,
          "name": "Protectora Ávila",
          "email": "info@protectoraavila.org",
          "phone": "+34 92 021 0024",
          "address": {
            "city": "Ávila",
            "region": "Ávila"
          },
          "instagram": "https://instagram.com/protectoraavila"
        }
      },
      "imageUrl": [
        "https://placedog.net/500/400?id=24",
        "https://placedog.net/500/400?id=54"
      ]
    },
    {
      "id": "25",
      "species": "dog",
      "name": "Milo",
      "ageYears": 2,
      "size": "small",
      "breed": "Mestizo",
      "date": "12/01/2025",
      "sex": "m",
      "status": "available",
      "compatibleWithDogs": false,
      "compatibleWithCats": false,
      "compatibleWithChildren": true,
      "description": "Muy cariñoso y dócil. Perfecto para familias tranquilas.",
      "history": "Milo fue devuelto a la protectora tras una adopción fallida en la que no se adaptó a convivir con otros perros. Con humanos es un auténtico mimoso.",
      "location": {
        "city": "Burgos",
        "region": "Burgos",
        "country": "España",
        "shelter": {
          "id": 24,
          "name": "Protectora Burgos",
          "email": "contacto@protectoraburgos.org",
          "phone": "+34 94 729 0025",
          "address": {
            "city": "Burgos",
            "region": "Burgos"
          },
          "facebook": "https://facebook.com/protectoraburgos"
        }
      },
      "imageUrl": [
        "https://placedog.net/500/400?id=25",
        "https://placedog.net/500/400?id=55"
      ]
    },
    {
      "id": "26",
      "species": "dog",
      "name": "Neo",
      "ageYears": 6,
      "size": "medium",
      "breed": "Mestizo",
      "date": "12/01/2025",
      "sex": "m",
      "status": "available",
      "compatibleWithDogs": false,
      "compatibleWithCats": false,
      "compatibleWithChildren": false,
      "description": "Perro senior muy tranquilo que busca un hogar sin estrés.",
      "history": "Neo pasó años viviendo en un patio sin apenas estimulación. Ahora disfruta de una rutina tranquila y agradece tener su propio espacio.",
      "specialNeeds": "Necesita un hogar sin niños pequeños ni mucho ruido.",
      "location": {
        "city": "Almería",
        "region": "Almería",
        "country": "España",
        "shelter": {
          "id": 25,
          "name": "Protectora Almería",
          "email": "info@protectoraalmeria.org",
          "phone": "+34 95 023 0026",
          "address": {
            "city": "Almería",
            "region": "Almería"
          },
          "instagram": "https://instagram.com/protectoraalmeria"
        }
      },
      "imageUrl": [
        "https://placedog.net/500/400?id=26",
        "https://placedog.net/500/400?id=56"
      ]
    },
    {
      "id": "27",
      "species": "dog",
      "name": "Tana",
      "ageYears": 1,
      "size": "small",
      "breed": "Mestizo",
      "date": "12/01/2025",
      "sex": "f",
      "status": "available",
      "compatibleWithDogs": true,
      "compatibleWithCats": true,
      "compatibleWithChildren": true,
      "description": "Cachorra dulce, simpática y muy sociable.",
      "history": "Esta segunda Tana fue encontrada junto a un contenedor. Es muy sociable con otros perros y le encanta jugar con pelotas.",
      "location": {
        "city": "Cáceres",
        "region": "Cáceres",
        "country": "España",
        "shelter": {
          "id": 26,
          "name": "Protectora Cáceres",
          "email": "contacto@protectoracaceres.org",
          "phone": "+34 92 721 0027",
          "address": {
            "city": "Cáceres",
            "region": "Cáceres"
          },
          "facebook": "https://facebook.com/protectoracaceres"
        }
      },
      "imageUrl": [
        "https://placedog.net/500/400?id=27",
        "https://placedog.net/500/400?id=57"
      ]
    },
    {
      "id": "28",
      "species": "dog",
      "name": "Kyra",
      "ageYears": 3,
      "size": "medium",
      "breed": "Mestizo",
      "date": "12/01/2025",
      "sex": "f",
      "status": "available",
      "compatibleWithDogs": true,
      "compatibleWithCats": false,
      "compatibleWithChildren": true,
      "description": "Perra cariñosa y agradecida. Muy fiel a quien confía.",
      "history": "Kyra fue rescatada de un caso de acumulación de animales. A pesar de ello, se ha adaptado muy bien a la vida en el refugio y busca un hogar definitivo.",
      "location": {
        "city": "Cuenca",
        "region": "Cuenca",
        "country": "España",
        "shelter": {
          "id": 27,
          "name": "Protectora Cuenca",
          "email": "info@protectoracuenca.org",
          "phone": "+34 96 922 0028",
          "address": {
            "city": "Cuenca",
            "region": "Cuenca"
          },
          "instagram": "https://instagram.com/protectoracuenca"
        }
      },
      "imageUrl": [
        "https://placedog.net/500/400?id=28",
        "https://placedog.net/500/400?id=58"
      ]
    },
    {
      "id": "29",
      "species": "dog",
      "name": "Troy",
      "ageYears": 7,
      "size": "large",
      "breed": "Mestizo",
      "date": "12/01/2025",
      "sex": "m",
      "status": "available",
      "compatibleWithDogs": true,
      "compatibleWithCats": false,
      "compatibleWithChildren": true,
      "description": "Perro mayor muy bueno y cariñoso. Ideal para personas tranquilas.",
      "history": "Troy fue abandonado en una gasolinera y estuvo semanas viviendo allí hasta que la protectora pudo recogerlo. Es muy agradecido y se adapta bien a nuevos entornos.",
      "specialNeeds": "Paseos moderados y control veterinario anual por su edad.",
      "location": {
        "city": "Albacete",
        "region": "Albacete",
        "country": "España",
        "shelter": {
          "id": 28,
          "name": "Protectora Albacete",
          "email": "contacto@protectoraalbacete.org",
          "phone": "+34 96 714 0029",
          "address": {
            "city": "Albacete",
            "region": "Albacete"
          },
          "facebook": "https://facebook.com/protectoraalbacete"
        }
      },
      "imageUrl": [
        "https://placedog.net/500/400?id=29",
        "https://placedog.net/500/400?id=59"
      ]
    },
    {
      "id": "30",
      "species": "dog",
      "name": "Olivia",
      "ageYears": 2,
      "size": "small",
      "breed": "Mestizo",
      "date": "12/01/2025",
      "sex": "f",
      "status": "available",
      "compatibleWithDogs": true,
      "compatibleWithCats": true,
      "compatibleWithChildren": true,
      "description": "Perra muy sociable, cariñosa y juguetona.",
      "history": "Olivia fue encontrada con un leve cuadro de desnutrición, del que ya está completamente recuperada. Es muy simpática con todo el mundo.",
      "location": {
        "city": "Ourense",
        "region": "Ourense",
        "country": "España",
        "shelter": {
          "id": 29,
          "name": "Protectora Ourense",
          "email": "info@protectoraourense.gal",
          "phone": "+34 98 837 0030",
          "address": {
            "city": "Ourense",
            "region": "Ourense"
          },
          "instagram": "https://instagram.com/protectoraourense"
        }
      },
      "imageUrl": [
        "https://placedog.net/500/400?id=30",
        "https://placedog.net/500/400?id=60"
      ]
    }
  ],
  "animals-count": {
    "total": 30
  },
  "urgent-animals": [
    {
      "id": "25",
      "species": "dog",
      "name": "Milo",
      "ageYears": 2,
      "size": "small",
      "breed": "Mestizo",
      "date": "12/01/2025",
      "sex": "m",
      "status": "available",
      "compatibleWithDogs": false,
      "compatibleWithCats": false,
      "compatibleWithChildren": true,
      "description": "Muy cariñoso y dócil. Perfecto para familias tranquilas.",
      "history": "Milo fue devuelto a la protectora tras una adopción fallida en la que no se adaptó a convivir con otros perros. Con humanos es un auténtico mimoso.",
      "location": {
        "city": "Burgos",
        "region": "Burgos",
        "country": "España",
        "shelter": {
          "id": 24,
          "name": "Protectora Burgos",
          "email": "contacto@protectoraburgos.org",
          "phone": "+34 94 729 0025",
          "address": {
            "city": "Burgos",
            "region": "Burgos"
          },
          "facebook": "https://facebook.com/protectoraburgos"
        }
      },
      "imageUrl": [
        "https://placedog.net/500/400?id=25",
        "https://placedog.net/500/400?id=55"
      ]
    },
    {
      "id": "26",
      "species": "dog",
      "name": "Neo",
      "ageYears": 6,
      "size": "medium",
      "breed": "Mestizo",
      "date": "12/01/2025",
      "sex": "m",
      "status": "available",
      "compatibleWithDogs": false,
      "compatibleWithCats": false,
      "compatibleWithChildren": false,
      "description": "Perro senior muy tranquilo que busca un hogar sin estrés.",
      "history": "Neo pasó años viviendo en un patio sin apenas estimulación. Ahora disfruta de una rutina tranquila y agradece tener su propio espacio.",
      "specialNeeds": "Necesita un hogar sin niños pequeños ni mucho ruido.",
      "location": {
        "city": "Almería",
        "region": "Almería",
        "country": "España",
        "shelter": {
          "id": 25,
          "name": "Protectora Almería",
          "email": "info@protectoraalmeria.org",
          "phone": "+34 95 023 0026",
          "address": {
            "city": "Almería",
            "region": "Almería"
          },
          "instagram": "https://instagram.com/protectoraalmeria"
        }
      },
      "imageUrl": [
        "https://placedog.net/500/400?id=26",
        "https://placedog.net/500/400?id=56"
      ]
    },
    {
      "id": "27",
      "species": "dog",
      "name": "Tana",
      "ageYears": 1,
      "size": "small",
      "breed": "Mestizo",
      "date": "12/01/2025",
      "sex": "f",
      "status": "available",
      "compatibleWithDogs": true,
      "compatibleWithCats": true,
      "compatibleWithChildren": true,
      "description": "Cachorra dulce, simpática y muy sociable.",
      "history": "Esta segunda Tana fue encontrada junto a un contenedor. Es muy sociable con otros perros y le encanta jugar con pelotas.",
      "location": {
        "city": "Cáceres",
        "region": "Cáceres",
        "country": "España",
        "shelter": {
          "id": 26,
          "name": "Protectora Cáceres",
          "email": "contacto@protectoracaceres.org",
          "phone": "+34 92 721 0027",
          "address": {
            "city": "Cáceres",
            "region": "Cáceres"
          },
          "facebook": "https://facebook.com/protectoracaceres"
        }
      },
      "imageUrl": [
        "https://placedog.net/500/400?id=27",
        "https://placedog.net/500/400?id=57"
      ]
    },
    {
      "id": "28",
      "species": "dog",
      "name": "Kyra",
      "ageYears": 3,
      "size": "medium",
      "breed": "Mestizo",
      "date": "12/01/2025",
      "sex": "f",
      "status": "available",
      "compatibleWithDogs": true,
      "compatibleWithCats": false,
      "compatibleWithChildren": true,
      "description": "Perra cariñosa y agradecida. Muy fiel a quien confía.",
      "history": "Kyra fue rescatada de un caso de acumulación de animales. A pesar de ello, se ha adaptado muy bien a la vida en el refugio y busca un hogar definitivo.",
      "location": {
        "city": "Cuenca",
        "region": "Cuenca",
        "country": "España",
        "shelter": {
          "id": 27,
          "name": "Protectora Cuenca",
          "email": "info@protectoracuenca.org",
          "phone": "+34 96 922 0028",
          "address": {
            "city": "Cuenca",
            "region": "Cuenca"
          },
          "instagram": "https://instagram.com/protectoracuenca"
        }
      },
      "imageUrl": [
        "https://placedog.net/500/400?id=28",
        "https://placedog.net/500/400?id=58"
      ]
    },
    {
      "id": "29",
      "species": "dog",
      "name": "Troy",
      "ageYears": 7,
      "size": "large",
      "breed": "Mestizo",
      "date": "12/01/2025",
      "sex": "m",
      "status": "available",
      "compatibleWithDogs": true,
      "compatibleWithCats": false,
      "compatibleWithChildren": true,
      "description": "Perro mayor muy bueno y cariñoso. Ideal para personas tranquilas.",
      "history": "Troy fue abandonado en una gasolinera y estuvo semanas viviendo allí hasta que la protectora pudo recogerlo. Es muy agradecido y se adapta bien a nuevos entornos.",
      "specialNeeds": "Paseos moderados y control veterinario anual por su edad.",
      "location": {
        "city": "Albacete",
        "region": "Albacete",
        "country": "España",
        "shelter": {
          "id": 28,
          "name": "Protectora Albacete",
          "email": "contacto@protectoraalbacete.org",
          "phone": "+34 96 714 0029",
          "address": {
            "city": "Albacete",
            "region": "Albacete"
          },
          "facebook": "https://facebook.com/protectoraalbacete"
        }
      },
      "imageUrl": [
        "https://placedog.net/500/400?id=29",
        "https://placedog.net/500/400?id=59"
      ]
    },
    {
      "id": "30",
      "species": "dog",
      "name": "Olivia",
      "ageYears": 2,
      "size": "small",
      "breed": "Mestizo",
      "date": "12/01/2025",
      "sex": "f",
      "status": "available",
      "compatibleWithDogs": true,
      "compatibleWithCats": true,
      "compatibleWithChildren": true,
      "description": "Perra muy sociable, cariñosa y juguetona.",
      "history": "Olivia fue encontrada con un leve cuadro de desnutrición, del que ya está completamente recuperada. Es muy simpática con todo el mundo.",
      "location": {
        "city": "Ourense",
        "region": "Ourense",
        "country": "España",
        "shelter": {
          "id": 29,
          "name": "Protectora Ourense",
          "email": "info@protectoraourense.gal",
          "phone": "+34 98 837 0030",
          "address": {
            "city": "Ourense",
            "region": "Ourense"
          },
          "instagram": "https://instagram.com/protectoraourense"
        }
      },
      "imageUrl": [
        "https://placedog.net/500/400?id=30",
        "https://placedog.net/500/400?id=60"
      ]
    }
  ],
  "shelters": [
    {
      "id": "1",
      "name": "Protectora Madrid Central",
      "email": "contacto@protectoramadridcentral.org",
      "phone": "+34 91 555 0001",
      "address": {
        "city": "Alcalá de Henares",
        "region": "Madrid"
      },
      "facebook": "https://facebook.com/protectoramadridcentral",
      "instagram": "https://instagram.com/protectoramadridcentral"
    },
    {
      "id": "2",
      "name": "Protectora Barcelona",
      "email": "contacto@protectorabcn.cat",
      "phone": "+34 93 555 0002",
      "address": {
        "city": "Sabadell",
        "region": "Barcelona"
      },
      "facebook": "https://facebook.com/protectorabarcelona"
    },
    {
      "id": "3",
      "name": "Protectora Valencia",
      "email": "info@protectoravalencia.es",
      "phone": "+34 96 555 0003",
      "address": {
        "city": "Gandía",
        "region": "Valencia"
      },
      "instagram": "https://instagram.com/protectoravalencia"
    },
    {
      "id": "4",
      "name": "Protectora Sevilla",
      "email": "contacto@protectorasevilla.org",
      "phone": "+34 95 555 0004",
      "address": {
        "city": "Dos Hermanas",
        "region": "Sevilla"
      },
      "facebook": "https://facebook.com/protectorasevilla",
      "instagram": "https://instagram.com/protectorasevilla"
    },
    {
      "id": "5",
      "name": "Protectora Bilbao",
      "email": "info@protectorabilbao.eus",
      "phone": "+34 94 555 0005",
      "address": {
        "city": "Getxo",
        "region": "Bizkaia"
      },
      "facebook": "https://facebook.com/protectorabilbao"
    },
    {
      "id": "6",
      "name": "Protectora Zaragoza",
      "email": "contacto@protectorazaragoza.org",
      "phone": "+34 97 655 0006",
      "address": {
        "city": "Utebo",
        "region": "Zaragoza"
      },
      "instagram": "https://instagram.com/protectorazaragoza"
    },
    {
      "id": "7",
      "name": "Protectora Málaga",
      "email": "info@protectoramalaga.es",
      "phone": "+34 95 222 0007",
      "address": {
        "city": "Marbella",
        "region": "Málaga"
      },
      "facebook": "https://facebook.com/protectoramalaga",
      "instagram": "https://instagram.com/protectoramalaga"
    },
    {
      "id": "8",
      "name": "Protectora A Coruña",
      "email": "contacto@protectoracorunha.gal",
      "phone": "+34 98 155 0008",
      "address": {
        "city": "Betanzos",
        "region": "A Coruña"
      },
      "instagram": "https://instagram.com/protectoracorunha"
    },
    {
      "id": "9",
      "name": "Protectora Murcia",
      "email": "info@protectoramurcia.org",
      "phone": "+34 96 835 0009",
      "address": {
        "city": "Cartagena",
        "region": "Murcia"
      },
      "facebook": "https://facebook.com/protectoramurcia"
    },
    {
      "id": "10",
      "name": "Protectora Valladolid",
      "email": "contacto@protectoravalladolid.es",
      "phone": "+34 98 335 0010",
      "address": {
        "city": "Medina del Campo",
        "region": "Valladolid"
      },
      "facebook": "https://facebook.com/protectoravalladolid",
      "instagram": "https://instagram.com/protectoravalladolid"
    }
  ],
  "register": [],
  "login": [],
  "reset-password": [],
  "forgot-password": [],
  "logout": [],
  "my-shelter": {
    "id": "99",
    "legalName": "Mi Protectora",
    "taxId": "DAS12345",
    "registryNumber": "123123123",
    "responsibleFullName": "Daniel Aguilar",
    "responsibleRole": "Presidente",
    "contactPhone": "666666666",
    "contactEmail": "daniel@miprotectora.com",
    "address": {
      "street": "Calle protectora",
      "number": "12",
      "extra": "Finca 1",
      "postalCode": "28944",
      "city": "Fuenlabrada",
      "province": "Madrid"
    },
    "facebook": "https://www.facebook.com/mi-protectora",
    "instagram": "https://www.instagram.com/mi-protectora",
    "website": "https://www.mi-protectora.com"
  },
  "update-shelter": [],
  "change-password": [],
  "shelter-animals": [
    {
      "id": "1",
      "name": "Luna",
      "status": "available",
      "species": "dog",
      "image": "https://placedog.net/500/400?id=1",
      "ageYears": 2,
      "size": "medium",
      "sex": "f"
    },
    {
      "id": "2",
      "name": "Rocky",
      "status": "available",
      "species": "dog",
      "image": "https://placedog.net/500/400?id=2",
      "ageYears": 4,
      "size": "medium",
      "sex": "m"
    },
    {
      "id": "3",
      "name": "Thor",
      "status": "reserved",
      "species": "dog",
      "image": "https://placedog.net/500/400?id=3",
      "ageYears": 5,
      "size": "large",
      "sex": "m"
    },
    {
      "id": "4",
      "name": "Nube",
      "status": "available",
      "species": "dog",
      "image": "https://placedog.net/500/400?id=4",
      "ageYears": 3,
      "size": "medium",
      "sex": "f"
    },
    {
      "id": "5",
      "name": "Bimba",
      "status": "available",
      "species": "dog",
      "image": "https://placedog.net/500/400?id=5",
      "ageYears": 6,
      "size": "medium",
      "sex": "f"
    },
    {
      "id": "6",
      "name": "Max",
      "status": "reserved",
      "species": "dog",
      "image": "https://placedog.net/500/400?id=6",
      "ageYears": 1,
      "size": "small",
      "sex": "m"
    },
    {
      "id": "7",
      "name": "Toby",
      "status": "available",
      "species": "dog",
      "image": "https://placedog.net/500/400?id=7",
      "ageYears": 3,
      "size": "medium",
      "sex": "m"
    },
    {
      "id": "8",
      "name": "Simba",
      "status": "available",
      "species": "dog",
      "image": "https://placedog.net/500/400?id=8",
      "ageYears": 4,
      "size": "medium",
      "sex": "m"
    },
    {
      "id": "9",
      "name": "Jack",
      "status": "available",
      "species": "dog",
      "image": "https://placedog.net/500/400?id=9",
      "ageYears": 2,
      "size": "medium",
      "sex": "m"
    },
    {
      "id": "10",
      "name": "Lola",
      "status": "reserved",
      "species": "dog",
      "image": "https://placedog.net/500/400?id=10",
      "ageYears": 5,
      "size": "medium",
      "sex": "f"
    },
    {
      "id": "11",
      "name": "Bruno",
      "status": "available",
      "species": "dog",
      "image": "https://placedog.net/500/400?id=11",
      "ageYears": 7,
      "size": "large",
      "sex": "m"
    },
    {
      "id": "12",
      "name": "Rex",
      "status": "reserved",
      "species": "dog",
      "image": "https://placedog.net/500/400?id=12",
      "ageYears": 6,
      "size": "large",
      "sex": "m"
    },
    {
      "id": "13",
      "name": "Zeus",
      "status": "available",
      "species": "dog",
      "image": "https://placedog.net/500/400?id=13",
      "ageYears": 3,
      "size": "large",
      "sex": "m"
    },
    {
      "id": "14",
      "name": "Cleo",
      "status": "reserved",
      "species": "dog",
      "image": "https://placedog.net/500/400?id=14",
      "ageYears": 2,
      "size": "small",
      "sex": "f"
    },
    {
      "id": "15",
      "name": "Hera",
      "status": "available",
      "species": "dog",
      "image": "https://placedog.net/500/400?id=15",
      "ageYears": 4,
      "size": "large",
      "sex": "f"
    }
  ]
}
